{"results": [{"id": "T__92939f40b1cf", "name": "Il Peccato", "coordinates": {"latitude": 44.4302348, "longitude": 26.0996746}, "score": 5.599227371315633, "images": [], "booking_info": null, "attribution": [{"url": "http://www.openstreetmap.org/node/2486324781", "source_id": "openstreetmap"}], "price_tier": 2, "snippet_language_info": null, "snippet": "Delectable wines, very good coffee and homemade limoncello.", "location_id": "Bucharest"}, {"id": "N__286859252", "name": "Spring Time", "coordinates": {"latitude": 44.4346758, "longitude": 26.0994438}, "score": 5.597993445766601, "images": [], "booking_info": null, "attribution": [{"url": "http://www.openstreetmap.org/node/286859252", "source_id": "openstreetmap"}], "price_tier": 1, "snippet_language_info": null, "snippet": "Good soup, local sausage and mixed meat.", "location_id": "Bucharest"}, {"id": "T__2d5f862084cf", "name": "Taverna Covaci", "coordinates": {"latitude": 44.4310849, "longitude": 26.1011467}, "score": 5.597747800915403, "images": [], "booking_info": null, "attribution": [{"url": "http://www.openstreetmap.org/node/6800236558", "source_id": "openstreetmap"}], "price_tier": null, "snippet_language_info": null, "snippet": "Very good schnitzels, traditional meat and cold fries.", "location_id": "Bucharest"}, {"id": "T__7c151957513b", "name": "Azzurro", "coordinates": {"latitude": 44.41661133898263, "longitude": 26.02696570617745}, "score": 5.596449851782522, "images": [], "booking_info": null, "attribution": [{"url": "http://www.openstreetmap.org/way/898065807", "source_id": "openstreetmap"}], "price_tier": 2, "snippet_language_info": null, "snippet": "Good espresso and very friendly staff.", "location_id": "Bucharest"}, {"id": "T__be7674d367b7", "name": "Dominium", "coordinates": {"latitude": 44.43110801015498, "longitude": 26.103196605976358}, "score": 5.595914205502799, "images": [], "booking_info": null, "attribution": [{"url": "http://www.openstreetmap.org/", "source_id": "openstreetmap"}], "price_tier": 1, "snippet_language_info": null, "snippet": "Located in the center, this cheap restaurant offers decent pizza, very good soup and cold food.", "location_id": "Bucharest"}, {"id": "T__d534ee409fba", "name": "Volo Hotel", "coordinates": {"latitude": 44.434036323425424, "longitude": 26.089921788811388}, "score": 5.595387137287859, "images": [], "booking_info": null, "attribution": [{"url": "http://www.openstreetmap.org/way/163639742", "source_id": "openstreetmap"}], "price_tier": null, "snippet_language_info": null, "snippet": "Volo Hotel is a hotel in Bucharest.", "location_id": "Bucharest"}, {"id": "T__7a4c0cd8b76f", "name": "Mon Cher", "coordinates": {"latitude": 44.4481297, "longitude": 26.0995757}, "score": 5.595197861076745, "images": [], "booking_info": null, "attribution": [{"url": "http://www.openstreetmap.org/node/7312238327", "source_id": "openstreetmap"}], "price_tier": null, "snippet_language_info": null, "snippet": "Nice atmosphere.", "location_id": "Bucharest"}, {"id": "T__195b2e221916", "name": "Hanu' Berarilor", "coordinates": {"latitude": 44.4396468, "longitude": 26.1236599}, "score": 5.593705359516676, "images": [], "booking_info": null, "attribution": [{"url": "http://www.openstreetmap.org/node/2476458605", "source_id": "openstreetmap"}], "price_tier": 2, "snippet_language_info": null, "snippet": "Located close to the National Museum of Firemen in Bucharest.", "location_id": "Bucharest"}, {"id": "N__360069791", "name": "Hotel Pui de Urs", "coordinates": {"latitude": 44.4408966, "longitude": 26.055632}, "score": 5.592701894501028, "images": [], "booking_info": null, "attribution": [{"url": "http://www.openstreetmap.org/way/413703565", "source_id": "openstreetmap"}], "price_tier": null, "snippet_language_info": null, "snippet": "With its fabulous food Hotel Pui de Urs is well worth a visit.", "location_id": "Bucharest"}, {"id": "T__af9c2ff713c3", "name": "La Finca by Alioli", "coordinates": {"latitude": 44.4519404, "longitude": 26.0960255}, "score": 5.592176690687765, "images": [], "booking_info": null, "attribution": [{"url": "http://www.openstreetmap.org/node/1974128906", "source_id": "openstreetmap"}], "price_tier": 2, "snippet_language_info": null, "snippet": "People recommend the awesome food, amazing paella and excellent steaks and the excellent cocktails and excellent wines.", "location_id": "Bucharest"}, {"id": "T__6f43fbfe91da", "name": "Restaurantul Coco\u0219u Ro\u0219u", "coordinates": {"latitude": 44.43858964111439, "longitude": 26.010070857086628}, "score": 5.591909425440966, "images": [], "booking_info": null, "attribution": [{"url": "http://www.openstreetmap.org/way/427878066", "source_id": "openstreetmap"}], "price_tier": 2, "snippet_language_info": null, "snippet": "Amazing soup and outstanding coffee.", "location_id": "Bucharest"}, {"id": "T__182594975adb", "name": "Pia\u021ba Rahova", "coordinates": {"latitude": 44.40445712783966, "longitude": 26.062600787816375}, "score": 5.590710292234471, "images": [], "booking_info": null, "attribution": [{"url": "http://www.openstreetmap.org/way/145401853", "source_id": "openstreetmap"}], "price_tier": null, "snippet_language_info": null, "snippet": "Pia\u021ba Rahova is a market in Bucharest.", "location_id": "Bucharest"}, {"id": "N__628640533", "name": "Argentin", "coordinates": {"latitude": 44.4322301, "longitude": 26.101746}, "score": 5.58992513580511, "images": [], "booking_info": null, "attribution": [{"url": "http://www.openstreetmap.org/node/628640533", "source_id": "openstreetmap"}], "price_tier": 1, "snippet_language_info": null, "snippet": "The cheapest beer around, in our view.", "location_id": "Bucharest"}, {"id": "N__822780618", "name": "Restaurant Pesc\u0103ru\u0219", "coordinates": {"latitude": 44.472574458850815, "longitude": 26.085142342606176}, "score": 5.589668782126308, "images": [], "booking_info": null, "attribution": [{"url": "http://www.openstreetmap.org/way/29701923", "source_id": "openstreetmap"}], "price_tier": 2, "snippet_language_info": null, "snippet": "A huge venue that offers great wines and local beer.", "location_id": "Bucharest"}, {"id": "T__99902f2fe7ec", "name": "Old Brick Pub", "coordinates": {"latitude": 44.46203067286347, "longitude": 26.126353375591094}, "score": 5.588331126900334, "images": [], "booking_info": null, "attribution": [{"url": "http://www.openstreetmap.org/", "source_id": "openstreetmap"}], "price_tier": 1, "snippet_language_info": null, "snippet": "Located in a quiet area, a british pub that has a truly delicious menu and decent sandwiches.", "location_id": "Bucharest"}, {"id": "T__012267f359d3", "name": "Half Time", "coordinates": {"latitude": 44.4312202, "longitude": 26.1022487}, "score": 5.58628306646056, "images": [], "booking_info": null, "attribution": [{"url": "http://www.openstreetmap.org/node/1814904386", "source_id": "openstreetmap"}], "price_tier": 2, "snippet_language_info": null, "snippet": "Decent prices.", "location_id": "Bucharest"}, {"id": "T__fd59420f4463", "name": "Starbucks", "coordinates": {"latitude": 44.4293001, "longitude": 26.1018607}, "score": 5.586075090213467, "images": [], "booking_info": null, "attribution": [{"url": "http://www.openstreetmap.org/node/3578133327", "source_id": "openstreetmap"}], "price_tier": null, "snippet_language_info": null, "snippet": "With its excellent coffee Starbucks is a place worth considering.", "location_id": "Bucharest"}, {"id": "T__7ca2532a0b4d", "name": "Bocca Lupo", "coordinates": {"latitude": 44.4338045, "longitude": 26.0779472}, "score": 5.58520897511521, "images": [], "booking_info": null, "attribution": [{"url": "http://www.openstreetmap.org/node/3105375696", "source_id": "openstreetmap"}], "price_tier": 2, "snippet_language_info": null, "snippet": "Located in the center, this very chic venue offers tasty pasta, good food and huge pizza.", "location_id": "Bucharest"}, {"id": "T__45e5c3982a34", "name": "Prim\u0103ria Otopeni", "coordinates": {"latitude": 44.5506448, "longitude": 26.0734695}, "score": 5.583680719858509, "images": [], "booking_info": null, "attribution": [{"url": "http://www.openstreetmap.org/node/631495324", "source_id": "openstreetmap"}], "price_tier": null, "snippet_language_info": null, "snippet": "Prim\u0103ria Otopeni is a city hall in Otopeni.", "location_id": "Otopeni"}, {"id": "T__d69ef76dfa65", "name": "The Real Beer Shop", "coordinates": {"latitude": 44.45145408675902, "longitude": 26.1117110910324}, "score": 5.583333325365468, "images": [], "booking_info": null, "attribution": [{"url": "http://www.openstreetmap.org/", "source_id": "openstreetmap"}], "price_tier": null, "snippet_language_info": null, "snippet": "The Real Beer Shop is a shop in Bucharest.", "location_id": "Bucharest"}, {"id": "N__1416522926", "name": "Storage Room", "coordinates": {"latitude": 44.4310564, "longitude": 26.0998701}, "score": 5.583333080162104, "images": [], "booking_info": null, "attribution": [{"url": "http://www.openstreetmap.org/node/1416522926", "source_id": "openstreetmap"}], "price_tier": 2, "snippet_language_info": null, "snippet": "No vegetarian options and fine pina colada.", "location_id": "Bucharest"}, {"id": "T__1e962443460d", "name": "Red Angus", "coordinates": {"latitude": 44.4297992, "longitude": 26.1010453}, "score": 5.582995466189839, "images": [], "booking_info": null, "attribution": [{"url": "http://www.openstreetmap.org/node/2486324802", "source_id": "openstreetmap"}], "price_tier": 2, "snippet_language_info": null, "snippet": "Very tasty rib eye, incredible desserts and giant ribs are on the menu in this excellent house.", "location_id": "Bucharest"}, {"id": "T__1270559df3f9", "name": "Madame Pogany", "coordinates": {"latitude": 44.4613313, "longitude": 26.1001768}, "score": 5.581627245405663, "images": [], "booking_info": null, "attribution": [{"url": "http://www.openstreetmap.org/node/7826555412", "source_id": "openstreetmap"}], "price_tier": null, "snippet_language_info": null, "snippet": "Located in a nice zone in Bucharest.", "location_id": "Bucharest"}, {"id": "T__85d10951b12e", "name": "Band of Creators", "coordinates": {"latitude": 44.44110904083573, "longitude": 26.097554121170614}, "score": 5.581620856099612, "images": [], "booking_info": null, "attribution": [{"url": "http://www.openstreetmap.org/", "source_id": "openstreetmap"}], "price_tier": null, "snippet_language_info": null, "snippet": "Band of Creators is a shop in Bucharest near the Theodor Aman Museum.", "location_id": "Bucharest"}, {"id": "T__377de8a1dc7c", "name": "La Fattoria", "coordinates": {"latitude": 44.4805585, "longitude": 26.0859548}, "score": 5.581409354326705, "images": [], "booking_info": null, "attribution": [{"url": "http://www.openstreetmap.org/node/327033576", "source_id": "openstreetmap"}], "price_tier": 2, "snippet_language_info": null, "snippet": "Located in a fancy area.", "location_id": "Bucharest"}, {"id": "T__b404a368bdc2", "name": "Sara Green", "coordinates": {"latitude": 44.45052051059381, "longitude": 26.089409825606506}, "score": 5.580783585715931, "images": [], "booking_info": null, "attribution": [{"url": "http://www.openstreetmap.org/", "source_id": "openstreetmap"}], "price_tier": 1, "snippet_language_info": null, "snippet": "Located close to the Cantacuzino Palace in Bucharest.", "location_id": "Bucharest"}, {"id": "T__9e8295d210b9", "name": "Parcul P\u0103s\u0103rari", "coordinates": {"latitude": 44.451025359145035, "longitude": 26.128155921454542}, "score": 5.579424809608094, "images": [], "booking_info": null, "attribution": [{"url": "http://www.openstreetmap.org/way/23705805", "source_id": "openstreetmap"}], "price_tier": null, "snippet_language_info": null, "snippet": "Parcul P\u0103s\u0103rari is a park in Bucharest.", "location_id": "Bucharest"}, {"id": "T__3bc724858f01", "name": "Restaurant Margineni", "coordinates": {"latitude": 44.4652448, "longitude": 26.1489516}, "score": 5.578486639136789, "images": [], "booking_info": null, "attribution": [{"url": "http://www.openstreetmap.org/node/5720545121", "source_id": "openstreetmap"}], "price_tier": 2, "snippet_language_info": null, "snippet": "With its excellent food Restaurant Margineni is definitely a place worth considering.", "location_id": "Bucharest"}, {"id": "T__13f0aaab2a7a", "name": "Librairie Kyralina", "coordinates": {"latitude": 44.444448901589325, "longitude": 26.09334007485908}, "score": 5.57840522857157, "images": [], "booking_info": null, "attribution": [{"url": "http://www.openstreetmap.org/", "source_id": "openstreetmap"}], "price_tier": null, "snippet_language_info": null, "snippet": "Librairie Kyralina is a shop in Bucharest near the Museum of Art Collections.", "location_id": "Bucharest"}, {"id": "T__502171257cdd", "name": "Garibaldi Trattoria & Pub", "coordinates": {"latitude": 44.4212967, "longitude": 26.0987328}, "score": 5.576346572153431, "images": [], "booking_info": null, "attribution": [{"url": "http://www.openstreetmap.org/node/2994874171", "source_id": "openstreetmap"}], "price_tier": 2, "snippet_language_info": null, "snippet": "Located in a quiet area.", "location_id": "Bucharest"}, {"id": "T__95ca80fb6e63", "name": "Saray", "coordinates": {"latitude": 44.43253, "longitude": 26.0983191}, "score": 5.575474752639966, "images": [], "booking_info": null, "attribution": [{"url": "http://www.openstreetmap.org/node/1731040928", "source_id": "openstreetmap"}], "price_tier": 2, "snippet_language_info": null, "snippet": "Very good food, particularly good bread and nice soup on offer here.", "location_id": "Bucharest"}, {"id": "T__9ef810d1459b", "name": "Restaurant Maria si Ion", "coordinates": {"latitude": 44.44488297199051, "longitude": 26.05566013873504}, "score": 5.573962465532074, "images": [], "booking_info": null, "attribution": [{"url": "http://www.openstreetmap.org/way/341740055", "source_id": "openstreetmap"}], "price_tier": null, "snippet_language_info": null, "snippet": "Good coffee.", "location_id": "Bucharest"}, {"id": "T__8067851535de", "name": "Quest Mission - Epic Escape Rooms", "coordinates": {"latitude": 44.44330372550222, "longitude": 26.09320469592991}, "score": 5.572596959305478, "images": [], "booking_info": null, "attribution": [{"url": "http://www.openstreetmap.org/", "source_id": "openstreetmap"}], "price_tier": null, "snippet_language_info": null, "snippet": "Quest Mission - Epic Escape Rooms is a mission in Bucharest near the Museum of Art Collections.", "location_id": "Bucharest"}, {"id": "T__f2d23db81d1a", "name": "Happy Pub", "coordinates": {"latitude": 44.4496178, "longitude": 26.0965831}, "score": 5.572412960622615, "images": [], "booking_info": null, "attribution": [{"url": "http://www.openstreetmap.org/node/2016987050", "source_id": "openstreetmap"}], "price_tier": null, "snippet_language_info": null, "snippet": "Helpful staff, a cool atmosphere and a good vibe.", "location_id": "Bucharest"}, {"id": "T__a9bf944ec9d1", "name": "Parcul Ion Voicu", "coordinates": {"latitude": 44.44553193214538, "longitude": 26.10470247243818}, "score": 5.571098977456366, "images": [], "booking_info": null, "attribution": [{"url": "http://www.openstreetmap.org/way/23770990", "source_id": "openstreetmap"}], "price_tier": null, "snippet_language_info": null, "snippet": "Parcul Ion Voicu is a park in Bucharest near the Gr\u0103dina Icoanei.", "location_id": "Bucharest"}, {"id": "T__71a230866c97", "name": "La pl\u0103cinte", "coordinates": {"latitude": 44.4448087, "longitude": 26.0982631}, "score": 5.570409135589747, "images": [], "booking_info": null, "attribution": [{"url": "http://www.openstreetmap.org/node/4549351693", "source_id": "openstreetmap"}], "price_tier": 2, "snippet_language_info": null, "snippet": "Great desserts and good wines.", "location_id": "Bucharest"}, {"id": "T__d2a38a4ed8d8", "name": "Prim\u0103ria Bragadiru", "coordinates": {"latitude": 44.3693646, "longitude": 25.9749181}, "score": 5.56947841528066, "images": [], "booking_info": null, "attribution": [{"url": "http://www.openstreetmap.org/node/275585486", "source_id": "openstreetmap"}], "price_tier": null, "snippet_language_info": null, "snippet": "Prim\u0103ria Bragadiru is a city hall in Bucharest.", "location_id": "Bucharest"}, {"id": "T__6b04e7bd72f8", "name": "Bistro HB", "coordinates": {"latitude": 44.4411119, "longitude": 26.1282979}, "score": 5.56856947628642, "images": [], "booking_info": null, "attribution": [{"url": "http://www.openstreetmap.org/node/2432692424", "source_id": "openstreetmap"}], "price_tier": 2, "snippet_language_info": null, "snippet": "Very good food and local fish.", "location_id": "Bucharest"}, {"id": "T__04c12e1bd738", "name": "La Coco\u0219atu'", "coordinates": {"latitude": 44.4944416, "longitude": 26.0823666}, "score": 5.568208580895935, "images": [], "booking_info": null, "attribution": [{"url": "http://www.openstreetmap.org/node/450614632", "source_id": "openstreetmap"}], "price_tier": 2, "snippet_language_info": null, "snippet": "With its excellent salads La Coco\u0219atu' is a place worth considering.", "location_id": "Bucharest"}, {"id": "T__ee4c25751239", "name": "Pia\u021ba Veteranilor", "coordinates": {"latitude": 44.4350932, "longitude": 26.0289178}, "score": 5.5678752495211885, "images": [], "booking_info": null, "attribution": [{"url": "http://www.openstreetmap.org/way/151752091", "source_id": "openstreetmap"}], "price_tier": null, "snippet_language_info": null, "snippet": "Pia\u021ba Veteranilor is a market in Bucharest.", "location_id": "Bucharest"}, {"id": "T__832f599dac88", "name": "La Casa Roz", "coordinates": {"latitude": 44.439104930889776, "longitude": 26.015913628849653}, "score": 5.567547927075582, "images": [], "booking_info": null, "attribution": [{"url": "http://www.openstreetmap.org/way/308237505", "source_id": "openstreetmap"}], "price_tier": 2, "snippet_language_info": null, "snippet": "Excellent desserts, big portions and great pizza.", "location_id": "Bucharest"}, {"id": "T__c0dae1a13554", "name": "Braseria Alouette", "coordinates": {"latitude": 44.425221, "longitude": 26.1024748}, "score": 5.567262591164818, "images": [], "booking_info": null, "attribution": [{"url": "http://www.openstreetmap.org/node/5183798829", "source_id": "openstreetmap"}], "price_tier": 2, "snippet_language_info": null, "snippet": "Some reviews recommend the excellent food.", "location_id": "Bucharest"}, {"id": "W__78063365", "name": "National Museum of Romanian Literature", "coordinates": {"latitude": 44.44612981805211, "longitude": 26.0932300774859}, "score": 5.566343473016371, "images": [], "booking_info": null, "attribution": [{"url": "http://www.openstreetmap.org/", "source_id": "openstreetmap"}, {"url": "http://en.wikivoyage.org/wiki/Bucharest", "source_id": "wikivoyage"}], "price_tier": null, "snippet_language_info": null, "snippet": "National Museum of Romanian Literature is a museum in Bucharest near the Museum of Mary and Dr.", "location_id": "Bucharest"}, {"id": "N__1729617185", "name": "Pizza Colosseum", "coordinates": {"latitude": 44.4366018, "longitude": 26.0989108}, "score": 5.564870458600971, "images": [], "booking_info": null, "attribution": [{"url": "http://www.openstreetmap.org/node/1729617185", "source_id": "openstreetmap"}], "price_tier": 1, "snippet_language_info": null, "snippet": "Located in the center, a reasonable establishment that does very good pizza, very fresh food and good pasta.", "location_id": "Bucharest"}, {"id": "T__2a6c244f8acd", "name": "restaurant casa anca", "coordinates": {"latitude": 44.4166333, "longitude": 26.1755253}, "score": 5.563885387881367, "images": [], "booking_info": null, "attribution": [{"url": "http://www.openstreetmap.org/node/4181970195", "source_id": "openstreetmap"}], "price_tier": 2, "snippet_language_info": null, "snippet": "Big portions, good pizza and very good desserts on offer in this big restaurant.", "location_id": "Bucharest"}, {"id": "T__cbf2669eba87", "name": "Biserica Ortodox\u0103 \u201eSf\u00e2ntul Eftimie - Fundenii Doamnei\u201d", "coordinates": {"latitude": 44.456782971153544, "longitude": 26.163548365895192}, "score": 5.56378500522304, "images": [{"sizes": {"medium": {"url": "http://api-images-www.triposo.com/20210615/gAAAAABhGSALFDmiBlCNUD5r-sP2_oeLI8dZio1XhY9dy0la1OVvlSrSyzsAKYWyduImdxAKWztGnPCw4T0-WJ-obJKLvtiCz7MCyXMhqpj8ZBvgAc38Ybl_LjphXRUvld8w6dMR1uqJC70268xV7Z7jntRgyk2uukgQ-uyRsLeeY0YmmO4j9Oky4-4oMuaXb8ch5wCmSAtp8FwKgFVr5VsYpF61aBnY0IP79D88U5i0qSOnlgjoNNA7scJX7SAyutL1WA9q74X3ZurmaDQvrXKv-PIcNos8PIksDg5fOSshLn5v4vAsvhU=", "bytes": 65913, "width": 640, "format": "jpg", "height": 472}, "original": {"url": "https://upload.wikimedia.org/wikipedia/commons/e/e7/RO_IF_Fundenii_Doamnei_St_Euthymius_church_1.jpg", "bytes": 6470275, "width": 3619, "format": "jpg", "height": 2673}, "thumbnail": {"url": "http://api-images-www.triposo.com/20210615/gAAAAABhGSALsNWZtzhKrJdRrqSGMk3BUvh4Bf1b3g5HtVgxkW9OeAipu7Zb5z9vXJclHH_qjMJMpBaxFYde9H-b6z17-NRzYv4_eeM7q8NXnxpIpUnKHgUcKEKj2E1P1mJe1m_tE1HMVNxzrCE0nY6oYTRLvHls-4K2rZ9iMhmX0bv-nnR9rSp6BCZN5fekmPWK-1Me8-TdiS1gn92cDEq8OOOeTRbcKSZPBCeN8tgwuOKHfIUr2AtfLmx9Jre6UAmMZGQSyL4F4q0mV8gKWxs1z4v2Q2lsMA==", "bytes": 9539, "width": 192, "format": "jpg", "height": 141}}, "caption": "imagine", "source_id": "wikipedia", "source_url": "https://upload.wikimedia.org/wikipedia/commons/e/e7/RO_IF_Fundenii_Doamnei_St_Euthymius_church_1.jpg", "attribution": {"format": "{attribution} / {license}", "license_link": "https://creativecommons.org/licenses/by-sa/3.0/ro/deed.en", "license_text": "CC BY-SA 3.0 ro", "attribution_link": "https://commons.wikimedia.org/wiki/File:RO_IF_Fundenii_Doamnei_St_Euthymius_church_1.jpg", "attribution_text": "Andrei Stroe"}}], "booking_info": null, "attribution": [{"url": "http://www.openstreetmap.org/way/76930933", "source_id": "openstreetmap"}], "price_tier": null, "snippet_language_info": null, "snippet": "Biserica Ortodox\u0103 \u201eSf\u00e2ntul Eftimie - Fundenii Doamnei\u201d is a church in Bucharest.", "location_id": "Bucharest"}, {"id": "T__8cbdc9cecfea", "name": "Edgar`s Pub", "coordinates": {"latitude": 44.4356477, "longitude": 26.0991834}, "score": 5.562792443275669, "images": [], "booking_info": null, "attribution": [{"url": "http://www.openstreetmap.org/node/1989406643", "source_id": "openstreetmap"}], "price_tier": null, "snippet_language_info": null, "snippet": "A fancy cafe that features helpful staff and good food.", "location_id": "Bucharest"}, {"id": "T__81323101bfd9", "name": "Calinescu's Tavern", "coordinates": {"latitude": 44.41053, "longitude": 26.1125425}, "score": 5.562551824307926, "images": [], "booking_info": null, "attribution": [{"url": "http://www.openstreetmap.org/node/2096511471", "source_id": "openstreetmap"}], "price_tier": null, "snippet_language_info": null, "snippet": "Located in a very quiet area, this good restaurant offers tasty food, big portions and huge donuts.", "location_id": "Bucharest"}, {"id": "T__3665798e5411", "name": "Joben Bistro", "coordinates": {"latitude": 44.43058087582462, "longitude": 26.100673844398635}, "score": 5.560747933694608, "images": [], "booking_info": null, "attribution": [{"url": "http://www.openstreetmap.org/", "source_id": "openstreetmap"}], "price_tier": 2, "snippet_language_info": null, "snippet": "Located close to the Curtea Veche in Bucharest.", "location_id": "Bucharest"}, {"id": "T__097f11cce0ad", "name": "Biserica Ortodox\u0103 \u201eSf\u00e2ntul Nicolae\u201d", "coordinates": {"latitude": 44.43675597691039, "longitude": 26.09952639699945}, "score": 5.560287312199832, "images": [], "booking_info": null, "attribution": [{"url": "http://www.openstreetmap.org/way/129316963", "source_id": "openstreetmap"}], "price_tier": null, "snippet_language_info": null, "snippet": "Biserica Ortodox\u0103 \u201eSf\u00e2ntul Nicolae\u201d is a church in Bucharest near the Palace of the National Military Circle.", "location_id": "Bucharest"}, {"id": "T__4e0eb179bac6", "name": "Pizza Hut", "coordinates": {"latitude": 44.4200176, "longitude": 26.1266385}, "score": 5.558957222677391, "images": [], "booking_info": null, "attribution": [{"url": "http://www.openstreetmap.org/node/8614949365", "source_id": "openstreetmap"}], "price_tier": 1, "snippet_language_info": null, "snippet": "Very good pasta and good pizza.", "location_id": "Bucharest"}, {"id": "T__3193a287790c", "name": "Bemolle Cafe", "coordinates": {"latitude": 44.4331273, "longitude": 26.0985322}, "score": 5.558193650968973, "images": [], "booking_info": null, "attribution": [{"url": "http://www.openstreetmap.org/node/1487149127", "source_id": "openstreetmap"}], "price_tier": 2, "snippet_language_info": null, "snippet": "Great options in a relaxed ambience.", "location_id": "Bucharest"}, {"id": "T__8981bd169b0a", "name": "Manufaktura", "coordinates": {"latitude": 44.4429171, "longitude": 26.1522088}, "score": 5.558016825236201, "images": [], "booking_info": null, "attribution": [{"url": "http://www.openstreetmap.org/node/3261513976", "source_id": "openstreetmap"}], "price_tier": 2, "snippet_language_info": null, "snippet": "If you love amazing ice cream check out Manufaktura.", "location_id": "Bucharest"}, {"id": "T__847bd4cde68a", "name": "Militari Shopping", "coordinates": {"latitude": 44.438640437004516, "longitude": 25.98289656344653}, "score": 5.557787955798579, "images": [], "booking_info": null, "attribution": [{"url": "http://www.openstreetmap.org/way/81191769", "source_id": "openstreetmap"}], "price_tier": null, "snippet_language_info": null, "snippet": "Militari Shopping is a shopping centre in Bucharest.", "location_id": "Bucharest"}, {"id": "T__f91491df451c", "name": "Lolly Pop", "coordinates": {"latitude": 44.4299077, "longitude": 26.1346554}, "score": 5.557754438479208, "images": [], "booking_info": null, "attribution": [{"url": "http://www.openstreetmap.org/node/2405677715", "source_id": "openstreetmap"}], "price_tier": 2, "snippet_language_info": null, "snippet": "Reviews recommend the amazing food and amazing rib eye.", "location_id": "Bucharest"}, {"id": "T__70bca8b13165", "name": "Lumea Copiilor - Dragonul Ro\u0219u", "coordinates": {"latitude": 44.47603981087214, "longitude": 26.183294431623306}, "score": 5.557289796252751, "images": [], "booking_info": null, "attribution": [{"url": "http://www.openstreetmap.org/way/196864274", "source_id": "openstreetmap"}], "price_tier": null, "snippet_language_info": null, "snippet": "Lumea Copiilor - Dragonul Ro\u0219u is a department store in Voluntari.", "location_id": "Voluntari"}, {"id": "T__542ef5d1399f", "name": "District 42", "coordinates": {"latitude": 44.4309242, "longitude": 26.0992454}, "score": 5.555869560622854, "images": [], "booking_info": null, "attribution": [{"url": "http://www.openstreetmap.org/node/6638244685", "source_id": "openstreetmap"}], "price_tier": 2, "snippet_language_info": null, "snippet": "Good ribs and cold patty are on the menu.", "location_id": "Bucharest"}, {"id": "T__e89033f80f22", "name": "El Bacha", "coordinates": {"latitude": 44.4246872, "longitude": 26.1296581}, "score": 5.555107962307156, "images": [], "booking_info": null, "attribution": [{"url": "http://www.openstreetmap.org/node/4422913589", "source_id": "openstreetmap"}], "price_tier": 2, "snippet_language_info": null, "snippet": "Fine wines.", "location_id": "Bucharest"}, {"id": "T__89ff28d8e177", "name": "Cantuccio", "coordinates": {"latitude": 44.4167252, "longitude": 26.0930862}, "score": 5.554876291768997, "images": [], "booking_info": null, "attribution": [{"url": "http://www.openstreetmap.org/node/4639623434", "source_id": "openstreetmap"}], "price_tier": 2, "snippet_language_info": null, "snippet": "Hot wines and good service.", "location_id": "Bucharest"}, {"id": "T__e144bb18d36e", "name": "El Torito", "coordinates": {"latitude": 44.442904023855455, "longitude": 26.121377359350415}, "score": 5.5545175401119735, "images": [], "booking_info": null, "attribution": [{"url": "http://www.openstreetmap.org/", "source_id": "openstreetmap"}], "price_tier": 1, "snippet_language_info": null, "snippet": "This mexican pub offers mexican beer, great pina colada and very good cocktails.", "location_id": "Bucharest"}, {"id": "T__85d3f8838316", "name": "Al Wady", "coordinates": {"latitude": 44.4304283, "longitude": 26.0523577}, "score": 5.554338783743516, "images": [], "booking_info": null, "attribution": [{"url": "http://www.openstreetmap.org/node/5433115598", "source_id": "openstreetmap"}], "price_tier": 2, "snippet_language_info": null, "snippet": "Good food, nice meals and fresh bread are on the menu here.", "location_id": "Bucharest"}, {"id": "T__764e3ed2f2e7", "name": "Palatul \u0218tirbei", "coordinates": {"latitude": 44.44373862816516, "longitude": 26.091786895532636}, "score": 5.553988333319685, "images": [], "booking_info": null, "attribution": [{"url": "http://www.openstreetmap.org/way/131269872", "source_id": "openstreetmap"}], "price_tier": null, "snippet_language_info": null, "snippet": "Palatul \u0218tirbei is a castle in Bucharest near the Museum of Art Collections.", "location_id": "Bucharest"}, {"id": "T__9329250a161a", "name": "Pizza Hut", "coordinates": {"latitude": 44.431495, "longitude": 26.0534227}, "score": 5.55392248937026, "images": [], "booking_info": null, "attribution": [{"url": "http://www.openstreetmap.org/node/7079505522", "source_id": "openstreetmap"}], "price_tier": null, "snippet_language_info": null, "snippet": "Pizza Hut is a pizza restaurant in Bucharest.", "location_id": "Bucharest"}, {"id": "T__978d3519363a", "name": "Socului kebap7", "coordinates": {"latitude": 44.4337819, "longitude": 26.154169}, "score": 5.553563400724045, "images": [], "booking_info": null, "attribution": [{"url": "http://www.openstreetmap.org/node/2610936899", "source_id": "openstreetmap"}], "price_tier": 1, "snippet_language_info": null, "snippet": "Good fast food and big portions on offer in this american restaurant.", "location_id": "Bucharest"}, {"id": "T__3e2e92786365", "name": "Pizza Hut", "coordinates": {"latitude": 44.505933, "longitude": 26.0893334}, "score": 5.553254106346934, "images": [], "booking_info": null, "attribution": [{"url": "http://www.openstreetmap.org/node/7263353950", "source_id": "openstreetmap"}], "price_tier": 1, "snippet_language_info": null, "snippet": "Good food.", "location_id": "Bucharest"}, {"id": "T__e26708f3f4c8", "name": "Conacul Rom\u00e2nesc", "coordinates": {"latitude": 44.4285721, "longitude": 26.1334992}, "score": 5.552989048846751, "images": [], "booking_info": null, "attribution": [{"url": "http://www.openstreetmap.org/node/4918415322", "source_id": "openstreetmap"}], "price_tier": null, "snippet_language_info": null, "snippet": "Good food and hot coffee.", "location_id": "Bucharest"}, {"id": "T__283beaa3b424", "name": "Terra Park", "coordinates": {"latitude": 44.42955308487413, "longitude": 26.045387612619674}, "score": 5.552800667830375, "images": [], "booking_info": null, "attribution": [{"url": "http://www.openstreetmap.org/", "source_id": "openstreetmap"}], "price_tier": null, "snippet_language_info": null, "snippet": "Terra Park is a park in Bucharest.", "location_id": "Bucharest"}, {"id": "T__8a8b2f473955", "name": "Pia\u021ba Gorjului", "coordinates": {"latitude": 44.43523021744747, "longitude": 26.02004994659134}, "score": 5.552753231510071, "images": [], "booking_info": null, "attribution": [{"url": "http://www.openstreetmap.org/way/151717546", "source_id": "openstreetmap"}], "price_tier": null, "snippet_language_info": null, "snippet": "Pia\u021ba Gorjului is a market in Bucharest.", "location_id": "Bucharest"}, {"id": "N__496335446", "name": "Biserica Ortodox\u0103 \u201eDomni\u021ba B\u0103la\u0219a\u201d", "coordinates": {"latitude": 44.4282307, "longitude": 26.1002548}, "score": 5.552149441588205, "images": [], "booking_info": null, "attribution": [{"url": "http://www.openstreetmap.org/node/496335446", "source_id": "openstreetmap"}], "price_tier": null, "snippet_language_info": null, "snippet": "Biserica Ortodox\u0103 \u201eDomni\u021ba B\u0103la\u0219a\u201d is a church in Bucharest near the Palace of Justice.", "location_id": "Bucharest"}, {"id": "N__327218134", "name": "Casa Doina", "coordinates": {"latitude": 44.458904398704384, "longitude": 26.083376825643622}, "score": 5.551319175310394, "images": [], "booking_info": null, "attribution": [{"url": "http://www.openstreetmap.org/way/277782378", "source_id": "openstreetmap"}], "price_tier": null, "snippet_language_info": null, "snippet": "Good meals in an outdoor ambience.", "location_id": "Bucharest"}, {"id": "T__b66369a83d44", "name": "Idomemos", "coordinates": {"latitude": 44.4490427, "longitude": 26.0815993}, "score": 5.550720829945126, "images": [], "booking_info": null, "attribution": [{"url": "http://www.openstreetmap.org/node/4510904389", "source_id": "openstreetmap"}], "price_tier": 2, "snippet_language_info": null, "snippet": "Delicious soup and quite unique salads on offer in this turkish restaurant.", "location_id": "Bucharest"}, {"id": "T__9e78a99b0a67", "name": "Autostrada Soarelui", "coordinates": {"latitude": 44.40718758202584, "longitude": 26.23347805585699}, "score": 5.549874679236421, "images": [], "booking_info": null, "attribution": [{"url": "http://www.openstreetmap.org/way/25248056", "source_id": "openstreetmap"}], "price_tier": null, "snippet_language_info": null, "snippet": "Autostrada Soarelui is a bridge in Bucharest.", "location_id": "Bucharest"}, {"id": "T__2aeec3b40ed9", "name": "Fior di Latte", "coordinates": {"latitude": 44.468061, "longitude": 26.089336}, "score": 5.54985049957419, "images": [], "booking_info": null, "attribution": [{"url": "http://www.openstreetmap.org/node/6750540397", "source_id": "openstreetmap"}], "price_tier": null, "snippet_language_info": null, "snippet": "Home made pasta and nice coffee.", "location_id": "Bucharest"}, {"id": "T__7ffbe87bc065", "name": "Nor Skybar & Restaurant", "coordinates": {"latitude": 44.4779041, "longitude": 26.1047805}, "score": 5.549610636327966, "images": [], "booking_info": null, "attribution": [{"url": "http://www.openstreetmap.org/node/7090938385", "source_id": "openstreetmap"}], "price_tier": null, "snippet_language_info": null, "snippet": "This good cafe is mentioned often for its amazing desserts, absolutely amazing pancakes and superb soup and wonderful wines, awesome coffee and exquisite cocktails.", "location_id": "Bucharest"}, {"id": "T__6eb95e1b896c", "name": "Ganesha Cafe", "coordinates": {"latitude": 44.4569453, "longitude": 26.105714}, "score": 5.547971643536908, "images": [], "booking_info": null, "attribution": [{"url": "http://www.openstreetmap.org/node/3766017224", "source_id": "openstreetmap"}], "price_tier": 1, "snippet_language_info": null, "snippet": "Great nachos in a great atmosphere.", "location_id": "Bucharest"}, {"id": "N__973034482", "name": "Casa Jienilor", "coordinates": {"latitude": 44.4394301, "longitude": 26.1305339}, "score": 5.547443230867735, "images": [], "booking_info": null, "attribution": [{"url": "http://www.openstreetmap.org/node/973034482", "source_id": "openstreetmap"}], "price_tier": null, "snippet_language_info": null, "snippet": "Local meals and great service.", "location_id": "Bucharest"}, {"id": "T__d3aaf461e143", "name": "Cofet\u0103ria Alice", "coordinates": {"latitude": 44.43891, "longitude": 26.1358639}, "score": 5.547213600847008, "images": [], "booking_info": null, "attribution": [{"url": "http://www.openstreetmap.org/node/3112658146", "source_id": "openstreetmap"}], "price_tier": null, "snippet_language_info": null, "snippet": "Very nice staff.", "location_id": "Bucharest"}, {"id": "T__ff07240b62a6", "name": "Hotel Minerva", "coordinates": {"latitude": 44.4489907, "longitude": 26.0910782}, "score": 5.546867966878271, "images": [], "booking_info": null, "attribution": [{"url": "http://www.openstreetmap.org/way/171045151", "source_id": "openstreetmap"}], "price_tier": null, "snippet_language_info": null, "snippet": "Hotel Minerva is a hotel in Bucharest.", "location_id": "Bucharest"}, {"id": "N__1008973988", "name": "Restaurant Casa Jienilor", "coordinates": {"latitude": 44.4479515, "longitude": 26.1218915}, "score": 5.546077333748434, "images": [], "booking_info": null, "attribution": [{"url": "http://www.openstreetmap.org/node/1008973988", "source_id": "openstreetmap"}], "price_tier": null, "snippet_language_info": null, "snippet": "Really good food.", "location_id": "Bucharest"}, {"id": "N__915929726", "name": "Biserica Ortodox\u0103 \u201eOlari\u201d", "coordinates": {"latitude": 44.4387171, "longitude": 26.1158539}, "score": 5.545707768279673, "images": [], "booking_info": null, "attribution": [{"url": "http://www.openstreetmap.org/node/915929726", "source_id": "openstreetmap"}], "price_tier": null, "snippet_language_info": null, "snippet": "Biserica Ortodox\u0103 \u201eOlari\u201d is a church in Bucharest near the Theodor Pallady Museum.", "location_id": "Bucharest"}, {"id": "T__2581897d1e12", "name": "Aria Burger", "coordinates": {"latitude": 44.4339294, "longitude": 26.1046332}, "score": 5.545280960966455, "images": [], "booking_info": null, "attribution": [{"url": "http://www.openstreetmap.org/node/4119529289", "source_id": "openstreetmap"}], "price_tier": 1, "snippet_language_info": null, "snippet": "Located close to the Col\u0163ea Church.", "location_id": "Bucharest"}, {"id": "T__544aa28e2718", "name": "The Gate Cafe", "coordinates": {"latitude": 44.4716378, "longitude": 26.0725991}, "score": 5.54482437116765, "images": [], "booking_info": null, "attribution": [{"url": "http://www.openstreetmap.org/node/4551369990", "source_id": "openstreetmap"}], "price_tier": 1, "snippet_language_info": null, "snippet": "Great food in a nice atmosphere.", "location_id": "Bucharest"}, {"id": "T__e5d571e0b806", "name": "Rocca by The Jar", "coordinates": {"latitude": 44.44388083334898, "longitude": 26.088192152055225}, "score": 5.542845295468188, "images": [], "booking_info": null, "attribution": [{"url": "http://www.openstreetmap.org/way/272522545", "source_id": "openstreetmap"}], "price_tier": 2, "snippet_language_info": null, "snippet": "Customers love the wonderful beer and amazing wines.", "location_id": "Bucharest"}, {"id": "T__2af6b33394ff", "name": "Chapel Mauriciu Blank", "coordinates": {"latitude": 44.5237874, "longitude": 26.0801385}, "score": 5.542617674151117, "images": [], "booking_info": null, "attribution": [{"url": "http://www.openstreetmap.org/node/4718366791", "source_id": "openstreetmap"}], "price_tier": null, "snippet_language_info": null, "snippet": "Chapel Mauriciu Blank is a museum in Bucharest.", "location_id": "Bucharest"}, {"id": "T__d64186bb702c", "name": "Parcul Plumbuita", "coordinates": {"latitude": 44.4696529231507, "longitude": 26.135128422898415}, "score": 5.542048805135616, "images": [], "booking_info": null, "attribution": [{"url": "http://www.openstreetmap.org/way/23583196", "source_id": "openstreetmap"}], "price_tier": null, "snippet_language_info": null, "snippet": "Parcul Plumbuita is a park in Bucharest.", "location_id": "Bucharest"}, {"id": "N__1487149129", "name": "Valea Regilor", "coordinates": {"latitude": 44.4333322, "longitude": 26.0985443}, "score": 5.541675745362317, "images": [], "booking_info": null, "attribution": [{"url": "http://www.openstreetmap.org/node/1487149129", "source_id": "openstreetmap"}], "price_tier": null, "snippet_language_info": null, "snippet": "Good food in a good atmosphere.", "location_id": "Bucharest"}, {"id": "T__39676368afbc", "name": "Puri Bali", "coordinates": {"latitude": 44.44169171604321, "longitude": 26.096748224899024}, "score": 5.541209613013955, "images": [], "booking_info": null, "attribution": [{"url": "http://www.openstreetmap.org/", "source_id": "openstreetmap"}], "price_tier": null, "snippet_language_info": null, "snippet": "Puri Bali is a hotel in Bucharest near the National Museum of Art of Romania.", "location_id": "Bucharest"}, {"id": "T__11fb0b8b4566", "name": "Voievodal B\u0103neasa", "coordinates": {"latitude": 44.4903497, "longitude": 26.079517}, "score": 5.541032828958972, "images": [], "booking_info": null, "attribution": [{"url": "http://www.openstreetmap.org/node/450607945", "source_id": "openstreetmap"}], "price_tier": 2, "snippet_language_info": null, "snippet": "Real espresso in an unique atmosphere.", "location_id": "Bucharest"}, {"id": "N__534657448", "name": "Il Calcio Barbu Vacarescu by Mr. Val", "coordinates": {"latitude": 44.47105757899584, "longitude": 26.110698779350244}, "score": 5.539991353261417, "images": [], "booking_info": null, "attribution": [{"url": "http://www.openstreetmap.org/way/418262949", "source_id": "openstreetmap"}], "price_tier": 2, "snippet_language_info": null, "snippet": "Heated pizza in a nice vibe.", "location_id": "Bucharest"}, {"id": "T__e3686bf372c2", "name": "Finikia", "coordinates": {"latitude": 44.4301156, "longitude": 26.1000244}, "score": 5.539810431105778, "images": [], "booking_info": null, "attribution": [{"url": "http://www.openstreetmap.org/node/2486324798", "source_id": "openstreetmap"}], "price_tier": null, "snippet_language_info": null, "snippet": "Delicious meals, hot bread and cheap kebab on offer in this irish pub.", "location_id": "Bucharest"}, {"id": "T__d98d472d65ee", "name": "Allegria Drinks&Pizza", "coordinates": {"latitude": 44.411994, "longitude": 26.0207183}, "score": 5.537905902742782, "images": [], "booking_info": null, "attribution": [{"url": "http://www.openstreetmap.org/node/5612458621", "source_id": "openstreetmap"}], "price_tier": null, "snippet_language_info": null, "snippet": "Good food and tasty pizza on the menu here.", "location_id": "Bucharest"}, {"id": "T__0d5fd9140225", "name": "L'Incontro", "coordinates": {"latitude": 44.417136, "longitude": 26.1731913}, "score": 5.536904511512551, "images": [], "booking_info": null, "attribution": [{"url": "http://www.openstreetmap.org/node/635963545", "source_id": "openstreetmap"}], "price_tier": null, "snippet_language_info": null, "snippet": "Big terrace and huge menu.", "location_id": "Bucharest"}, {"id": "T__66e8bc8b269e", "name": "Club Piranha", "coordinates": {"latitude": 44.44300343646612, "longitude": 26.05250980136152}, "score": 5.535325054530764, "images": [], "booking_info": null, "attribution": [{"url": "http://www.openstreetmap.org/", "source_id": "openstreetmap"}], "price_tier": 2, "snippet_language_info": null, "snippet": "Nice beef in a quite nice setting.", "location_id": "Bucharest"}, {"id": "T__49ec0b6a0a4a", "name": "Upstairs Rooftop", "coordinates": {"latitude": 44.4497368, "longitude": 26.0856615}, "score": 5.533342443041593, "images": [], "booking_info": null, "attribution": [{"url": "http://www.openstreetmap.org/node/4418522689", "source_id": "openstreetmap"}], "price_tier": 2, "snippet_language_info": null, "snippet": "Located close to the Cantacuzino Palace.", "location_id": "Bucharest"}, {"id": "T__6f4a68c51809", "name": "Chicken Staff", "coordinates": {"latitude": 44.424689, "longitude": 26.0777212}, "score": 5.530141470330298, "images": [], "booking_info": null, "attribution": [{"url": "http://www.openstreetmap.org/node/3847812700", "source_id": "openstreetmap"}], "price_tier": 1, "snippet_language_info": null, "snippet": "Healthy options and good staff.", "location_id": "Bucharest"}, {"id": "T__202ecbbd979d", "name": "Restaurant Teras\u0103 Geo", "coordinates": {"latitude": 44.3894712, "longitude": 26.1188389}, "score": 5.529201783137317, "images": [], "booking_info": null, "attribution": [{"url": "http://www.openstreetmap.org/node/2271848232", "source_id": "openstreetmap"}], "price_tier": null, "snippet_language_info": null, "snippet": "Good food.", "location_id": "Bucharest"}, {"id": "T__ab5742dea5e0", "name": "Atelier Pinion", "coordinates": {"latitude": 44.44682721715399, "longitude": 26.095114091234375}, "score": 5.528900297494244, "images": [], "booking_info": null, "attribution": [{"url": "http://www.openstreetmap.org/", "source_id": "openstreetmap"}], "price_tier": 2, "snippet_language_info": null, "snippet": "Good coffee and very helpful staff.", "location_id": "Bucharest"}, {"id": "T__1417ab0dd5e8", "name": "Parcul Gara Filaret", "coordinates": {"latitude": 44.41629552648417, "longitude": 26.092340852082227}, "score": 5.528645497446631, "images": [], "booking_info": null, "attribution": [{"url": "http://www.openstreetmap.org/way/95093509", "source_id": "openstreetmap"}], "price_tier": null, "snippet_language_info": null, "snippet": "Parcul Gara Filaret is a park in Bucharest.", "location_id": "Bucharest"}, {"id": "T__2e3c9307b08a", "name": "Vulturul", "coordinates": {"latitude": 44.43442887673666, "longitude": 25.994780023772563}, "score": 5.528411190346844, "images": [], "booking_info": null, "attribution": [{"url": "http://www.openstreetmap.org/way/460022666", "source_id": "openstreetmap"}], "price_tier": 2, "snippet_language_info": null, "snippet": "Great food.", "location_id": "Bucharest"}, {"id": "T__55242d387ed4", "name": "Golden Kebap", "coordinates": {"latitude": 44.4454161, "longitude": 26.1362181}, "score": 5.527573022799815, "images": [], "booking_info": null, "attribution": [{"url": "http://www.openstreetmap.org/node/2506857874", "source_id": "openstreetmap"}], "price_tier": 2, "snippet_language_info": null, "snippet": "This lebanese restaurant offers sensational food, mixed kebab and quick meals.", "location_id": "Bucharest"}], "more": true}